[
  {
    "id": "af-south-1",
    "name": "af-south-1",
    "provider": "aws",
    "lat": -33.93,
    "lon": 18.42,
    "location": "Cape Town",
    "country": "za",
    "pue": 1.135,
    "wue": 0.19,
    "ref": 0
  },
  {
    "id": "ap-east-1",
    "name": "ap-east-1",
    "provider": "aws",
    "lat": 22.27,
    "lon": 114.16,
    "location": "Hong Kong",
    "country": "hk",
    "pue": 1.135,
    "wue": 0.19,
    "ref": 0
  },
  {
    "id": "ap-south-1",
    "name": "ap-south-1",
    "provider": "aws",
    "lat": 19.08,
    "lon": 72.88,
    "location": "Mumbai",
    "country": "in",
    "pue": 1.135,
    "wue": 0.19,
    "ref": 0
  },
  {
    "id": "ap-northeast-1",
    "name": "ap-south-1",
    "provider": "aws",
    "lat": 35.41,
    "lon": 139.42,
    "location": "Tokyo",
    "country": "jp",
    "pue": 1.135,
    "wue": 0.19,
    "ref": 0
  },
  {
    "id": "ap-northeast-2",
    "name": "ap-northeast-2",
    "provider": "aws",
    "lat": 37.56,
    "lon": 126.98,
    "location": "Seoul",
    "country": "kr",
    "pue": 1.135,
    "wue": 0.19,
    "ref": 0
  },
  {
    "id": "ap-northeast-3",
    "name": "ap-northeast-3",
    "provider": "aws",
    "lat": 34.69,
    "lon": 135.49,
    "location": "Osaka",
    "country": "jp",
    "pue": 1.135,
    "wue": 0.19,
    "ref": 0
  },
  {
    "id": "ap-southeast-1",
    "name": "ap-southeast-1",
    "provider": "aws",
    "lat": 1.37,
    "lon": 103.8,
    "location": "Singapore",
    "country": "sg",
    "pue": 1.135,
    "wue": 0.19,
    "ref": 0
  },
  {
    "id": "ap-southeast-2",
    "name": "ap-southeast-2",
    "provider": "aws",
    "lat": -33.86,
    "lon": 151.2,
    "location": "Sydney",
    "country": "au",
    "pue": 1.135,
    "wue": 0.19,
    "ref": 0
  },
  {
    "id": "ca-central-1",
    "name": "ca-central-1",
    "provider": "aws",
    "lat": 45.5,
    "lon": -73.6,
    "location": "Montreal",
    "country": "ca",
    "subdivision": "qc",
    "pue": 1.135,
    "wue": 0.19,
    "ref": 0
  },
  {
    "id": "cn-north-1",
    "name": "cn-north-1",
    "provider": "aws",
    "lat": 40,
    "lon": 116.4,
    "location": "Beijing",
    "country": "cn",
    "pue": 1.135,
    "wue": 0.19,
    "ref": 0
  },
  {
    "id": "cn-northwest-1",
    "name": "cn-northwest-1",
    "provider": "aws",
    "lat": 37,
    "lon": 106,
    "location": "Ningxia",
    "country": "cn",
    "pue": 1.135,
    "wue": 0.19,
    "ref": 0
  },
  {
    "id": "eu-central-1",
    "name": "eu-central-1",
    "provider": "aws",
    "lat": 50,
    "lon": 8,
    "location": "Frankfurt",
    "country": "de",
    "pue": 1.135,
    "wue": 0.19,
    "ref": 0
  },
  {
    "id": "eu-north-1",
    "name": "eu-north-1",
    "provider": "aws",
    "lat": 59.25,
    "lon": 17.81,
    "location": "Stockholm",
    "country": "se",
    "pue": 1.135,
    "wue": 0.19,
    "ref": 0
  },
  {
    "id": "eu-south-1",
    "name": "eu-south-1",
    "provider": "aws",
    "lat": 45.43,
    "lon": 9.29,
    "location": "Milan",
    "country": "it",
    "pue": 1.135,
    "wue": 0.19,
    "ref": 0
  },
  {
    "id": "eu-west-1",
    "name": "eu-west-1",
    "provider": "aws",
    "lat": 53,
    "lon": -8,
    "location": "Dublin",
    "country": "ie",
    "pue": 1.135,
    "wue": 0.19,
    "ref": 0
  },
  {
    "id": "eu-west-2",
    "name": "eu-west-2",
    "provider": "aws",
    "lat": 51,
    "lon": -0.1,
    "location": "London",
    "country": "gb",
    "pue": 1.135,
    "wue": 0.19,
    "ref": 0
  },
  {
    "id": "eu-west-3",
    "name": "eu-west-3",
    "provider": "aws",
    "lat": 48.86,
    "lon": 2.35,
    "location": "Paris",
    "country": "fr",
    "pue": 1.135,
    "wue": 0.19,
    "ref": 0
  },
  {
    "id": "me-south-1",
    "name": "me-south-1",
    "provider": "aws",
    "lat": 26.10,
    "lon": 50.46,
    "location": "Bahrain",
    "country": "bh",
    "pue": 1.135,
    "wue": 0.19,
    "ref": 0
  },
  {
    "id": "sa-east-1",
    "name": "sa-east-1",
    "provider": "aws",
    "lat": -23.34,
    "lon": -46.38,
    "location": "Sao Paulo",
    "country": "br",
    "pue": 1.135,
    "wue": 0.19,
    "ref": 0
  },
  {
    "id": "us-east-1",
    "name": "us-east-1",
    "provider": "aws",
    "lat": 38.13,
    "lon": -78.45,
    "location": "Ashburn",
    "country": "us",
    "subdivision": "va",
    "pue": 1.135,
    "wue": 0.19,
    "ref": 0
  },
  {
    "id": "us-east-2",
    "name": "us-east-2",
    "provider": "aws",
    "lat": 39.96,
    "lon": -83,
    "location": "Hilliard",
    "country": "us",
    "subdivision": "oh",
    "pue": 1.135,
    "wue": 0.19,
    "ref": 0
  },
  {
    "id": "us-west-1",
    "name": "us-west-1",
    "provider": "aws",
    "lat": 37.35,
    "lon": -121.96,
    "location": "San Jose",
    "country": "us",
    "subdivision": "ca",
    "pue": 1.135,
    "wue": 0.19,
    "ref": 0
  },
  {
    "id": "us-west-2",
    "name": "us-west-2",
    "provider": "aws",
    "lat": 46.15,
    "lon": -123.88,
    "location": "Madras",
    "country": "us",
    "subdivision": "or",
    "pue": 1.135,
    "wue": 0.19,
    "ref": 0
  }
]